transforms: 
  - 
    header: 
      seq: 0
      stamp: 
        secs: 1407887665
        nsecs: 94824103
      frame_id: odom
    child_frame_id: base_footprint
    transform: 
      translation: 
        x: 0.00731677794829
        y: -3.70782363461e-05
        z: 0.0
      rotation: 
        x: 0.0
        y: 0.0
        z: -0.00343653628327
        w: 0.999994095092
---
transforms: 
  - 
    header: 
      seq: 0
      stamp: 
        secs: 1407887665
        nsecs: 108828587
      frame_id: odom
    child_frame_id: base_footprint
    transform: 
      translation: 
        x: 0.00731677794829
        y: -3.70782363461e-05
        z: 0.0
      rotation: 
        x: 0.0
        y: 0.0
        z: -0.00343653628327
        w: 0.999994095092
---
transforms: 
  - 
    header: 
      seq: 0
      stamp: 
        secs: 1407887665
        nsecs: 122712585
      frame_id: odom
    child_frame_id: base_footprint
    transform: 
      translation: 
        x: 0.00731677794829
        y: -3.70782363461e-05
        z: 0.0
      rotation: 
        x: 0.0
        y: 0.0
        z: -0.00343653628327
        w: 0.999994095092
---
transforms: 
  - 
    header: 
      seq: 0
      stamp: 
        secs: 1407887665
        nsecs: 122744194
      frame_id: odom
    child_frame_id: base_footprint
    transform: 
      translation: 
        x: 0.00731677794829
        y: -3.70782363461e-05
        z: 0.0
      rotation: 
        x: 0.0
        y: 0.0
        z: -0.00343653628327
        w: 0.999994095092
---
transforms: 
  - 
    header: 
      seq: 0
      stamp: 
        secs: 1407887665
        nsecs: 134671829
      frame_id: odom
    child_frame_id: base_footprint
    transform: 
      translation: 
        x: 0.00731677794829
        y: -3.70782363461e-05
        z: 0.0
      rotation: 
        x: 0.0
        y: 0.0
        z: -0.00343653628327
        w: 0.999994095092
---
transforms: 
  - 
    header: 
      seq: 0
      stamp: 
        secs: 1407887665
        nsecs: 148623387
      frame_id: odom
    child_frame_id: base_footprint
    transform: 
      translation: 
        x: 0.00731677794829
        y: -3.70782363461e-05
        z: 0.0
      rotation: 
        x: 0.0
        y: 0.0
        z: -0.00343653628327
        w: 0.999994095092
---
transforms: 
  - 
    header: 
      seq: 0
      stamp: 
        secs: 1407887665
        nsecs: 163563951
      frame_id: odom
    child_frame_id: base_footprint
    transform: 
      translation: 
        x: 0.00731677794829
        y: -3.70782363461e-05
        z: 0.0
      rotation: 
        x: 0.0
        y: 0.0
        z: -0.00343653628327
        w: 0.999994095092
---
transforms: 
  - 
    header: 
      seq: 0
      stamp: 
        secs: 1407887665
        nsecs: 163616454
      frame_id: odom
    child_frame_id: base_footprint
    transform: 
      translation: 
        x: 0.00731677794829
        y: -3.70782363461e-05
        z: 0.0
      rotation: 
        x: 0.0
        y: 0.0
        z: -0.00343653628327
        w: 0.999994095092
---
transforms: 
  - 
    header: 
      seq: 0
      stamp: 
        secs: 1407887666
        nsecs: 108181312
      frame_id: map
    child_frame_id: odom
    transform: 
      translation: 
        x: 22.7519025033
        y: 11.3824075232
        z: -0.0
      rotation: 
        x: 0.0
        y: 0.0
        z: 0.975439267843
        w: 0.22026855143
---
transforms: 
  - 
    header: 
      seq: 0
      stamp: 
        secs: 1407887665
        nsecs: 174499225
      frame_id: odom
    child_frame_id: base_footprint
    transform: 
      translation: 
        x: 0.00731677794829
        y: -3.70782363461e-05
        z: 0.0
      rotation: 
        x: 0.0
        y: 0.0
        z: -0.00343653628327
        w: 0.999994095092
---
transforms: 
  - 
    header: 
      seq: 0
      stamp: 
        secs: 1407887665
        nsecs: 189665622
      frame_id: odom
    child_frame_id: base_footprint
    transform: 
      translation: 
        x: 0.00731677794829
        y: -3.70782363461e-05
        z: 0.0
      rotation: 
        x: 0.0
        y: 0.0
        z: -0.00343653628327
        w: 0.999994095092
---
transforms: 
  - 
    header: 
      seq: 0
      stamp: 
        secs: 1407887665
        nsecs: 203396743
      frame_id: odom
    child_frame_id: base_footprint
    transform: 
      translation: 
        x: 0.00731677794829
        y: -3.70782363461e-05
        z: 0.0
      rotation: 
        x: 0.0
        y: 0.0
        z: -0.00343653628327
        w: 0.999994095092
---
transforms: 
  - 
    header: 
      seq: 0
      stamp: 
        secs: 1407887665
        nsecs: 203427188
      frame_id: odom
    child_frame_id: base_footprint
    transform: 
      translation: 
        x: 0.00731677794829
        y: -3.70782363461e-05
        z: 0.0
      rotation: 
        x: 0.0
        y: 0.0
        z: -0.00343653628327
        w: 0.999994095092
---
transforms: 
  - 
    header: 
      seq: 0
      stamp: 
        secs: 1407887665
        nsecs: 215417233
      frame_id: odom
    child_frame_id: base_footprint
    transform: 
      translation: 
        x: 0.00731677794829
        y: -3.70782363461e-05
        z: 0.0
      rotation: 
        x: 0.0
        y: 0.0
        z: -0.00343653628327
        w: 0.999994095092
---
transforms: 
  - 
    header: 
      seq: 0
      stamp: 
        secs: 1407887665
        nsecs: 718666901
      frame_id: left_base_beam_link
    child_frame_id: back_left_vertical_beam_link
    transform: 
      translation: 
        x: 0.0127
        y: 0.0
        z: 0.0762
      rotation: 
        x: 0.707106781185
        y: 7.3123012202e-14
        z: 0.707106781188
        w: -7.31230122016e-14
  - 
    header: 
      seq: 0
      stamp: 
        secs: 1407887665
        nsecs: 718666901
      frame_id: right_base_beam_link
    child_frame_id: back_right_vertical_beam_link
    transform: 
      translation: 
        x: 0.0127
        y: 0.0
        z: 0.0762
      rotation: 
        x: 0.707106781185
        y: 7.3123012202e-14
        z: 0.707106781188
        w: -7.31230122016e-14
  - 
    header: 
      seq: 0
      stamp: 
        secs: 1407887665
        nsecs: 718666901
      frame_id: base_footprint
    child_frame_id: base_link
    transform: 
      translation: 
        x: 0.0
        y: 0.0
        z: 0.2165
      rotation: 
        x: 0.0
        y: 0.0
        z: 0.0
        w: 1.0
  - 
    header: 
      seq: 0
      stamp: 
        secs: 1407887665
        nsecs: 718666901
      frame_id: chassis_base_plate_link
    child_frame_id: battery_box_link
    transform: 
      translation: 
        x: -0.1651
        y: 0.0
        z: 0.00635
      rotation: 
        x: 0.0
        y: 0.0
        z: 0.0
        w: 1.0
  - 
    header: 
      seq: 0
      stamp: 
        secs: 1407887665
        nsecs: 718666901
      frame_id: chassis_base_plate_link
    child_frame_id: chassis_back_left_standoff_link
    transform: 
      translation: 
        x: 0.15875
        y: 0.1143
        z: 0.003175
      rotation: 
        x: 0.0
        y: 0.0
        z: 0.0
        w: 1.0
  - 
    header: 
      seq: 0
      stamp: 
        secs: 1407887665
        nsecs: 718666901
      frame_id: chassis_base_plate_link
    child_frame_id: chassis_back_right_standoff_link
    transform: 
      translation: 
        x: 0.15875
        y: -0.1143
        z: 0.003175
      rotation: 
        x: 0.0
        y: 0.0
        z: 0.0
        w: 1.0
  - 
    header: 
      seq: 0
      stamp: 
        secs: 1407887665
        nsecs: 718666901
      frame_id: base_link
    child_frame_id: chassis_base_plate_link
    transform: 
      translation: 
        x: -0.0508
        y: 0.0
        z: 0.10795
      rotation: 
        x: 0.0
        y: 0.0
        z: 0.0
        w: 1.0
  - 
    header: 
      seq: 0
      stamp: 
        secs: 1407887665
        nsecs: 718666901
      frame_id: chassis_base_plate_link
    child_frame_id: chassis_front_left_standoff_link
    transform: 
      translation: 
        x: 0.20955
        y: 0.1143
        z: 0.003175
      rotation: 
        x: 0.0
        y: 0.0
        z: 0.0
        w: 1.0
  - 
    header: 
      seq: 0
      stamp: 
        secs: 1407887665
        nsecs: 718666901
      frame_id: chassis_base_plate_link
    child_frame_id: chassis_front_right_standoff_link
    transform: 
      translation: 
        x: 0.20955
        y: -0.1143
        z: 0.003175
      rotation: 
        x: 0.0
        y: 0.0
        z: 0.0
        w: 1.0
  - 
    header: 
      seq: 0
      stamp: 
        secs: 1407887665
        nsecs: 718666901
      frame_id: chassis_base_plate_link
    child_frame_id: chassis_left_plate_link
    transform: 
      translation: 
        x: 0.0
        y: 0.17145
        z: -0.0508
      rotation: 
        x: -0.707106781188
        y: 0.0
        z: 0.0
        w: 0.707106781185
  - 
    header: 
      seq: 0
      stamp: 
        secs: 1407887665
        nsecs: 718666901
      frame_id: chassis_front_left_standoff_link
    child_frame_id: chassis_mount_plate_link
    transform: 
      translation: 
        x: -0.09525
        y: -0.1143
        z: 0.01349375
      rotation: 
        x: 0.0
        y: 0.0
        z: 0.0
        w: 1.0
  - 
    header: 
      seq: 0
      stamp: 
        secs: 1407887665
        nsecs: 718666901
      frame_id: chassis_base_plate_link
    child_frame_id: chassis_right_plate_link
    transform: 
      translation: 
        x: 0.0
        y: -0.17145
        z: -0.0508
      rotation: 
        x: 0.707106781188
        y: 0.0
        z: 0.0
        w: 0.707106781185
  - 
    header: 
      seq: 0
      stamp: 
        secs: 1407887665
        nsecs: 718666901
      frame_id: left_base_beam_link
    child_frame_id: front_left_vertical_beam_link
    transform: 
      translation: 
        x: 0.0127
        y: 0.0
        z: 0.2286
      rotation: 
        x: 0.707106781185
        y: 7.3123012202e-14
        z: 0.707106781188
        w: -7.31230122016e-14
  - 
    header: 
      seq: 0
      stamp: 
        secs: 1407887665
        nsecs: 718666901
      frame_id: right_base_beam_link
    child_frame_id: front_right_vertical_beam_link
    transform: 
      translation: 
        x: 0.0127
        y: 0.0
        z: 0.2286
      rotation: 
        x: 0.707106781185
        y: 7.3123012202e-14
        z: 0.707106781188
        w: -7.31230122016e-14
  - 
    header: 
      seq: 0
      stamp: 
        secs: 1407887665
        nsecs: 718666901
      frame_id: left_laptop_support_beam_link
    child_frame_id: laptop_base_plate_link
    transform: 
      translation: 
        x: 0.0127
        y: 0.174625
        z: 0.1524
      rotation: 
        x: 0.707106781185
        y: 7.3123012202e-14
        z: 0.707106781188
        w: -7.31230122016e-14
  - 
    header: 
      seq: 0
      stamp: 
        secs: 1407887665
        nsecs: 718666901
      frame_id: laptop_base_plate_link
    child_frame_id: laptop_link
    transform: 
      translation: 
        x: 0.0
        y: 0.0
        z: 0.003175
      rotation: 
        x: 0.0
        y: 0.0
        z: 0.0
        w: 1.0
  - 
    header: 
      seq: 0
      stamp: 
        secs: 1407887665
        nsecs: 718666901
      frame_id: laptop_link
    child_frame_id: laptop_screen_link
    transform: 
      translation: 
        x: 0.1143
        y: 0.0
        z: 0.01905
      rotation: 
        x: 0.0
        y: -0.500000000001
        z: 0.0
        w: 0.866025403784
  - 
    header: 
      seq: 0
      stamp: 
        secs: 1407887665
        nsecs: 718666901
      frame_id: chassis_base_plate_link
    child_frame_id: left_base_beam_link
    transform: 
      translation: 
        x: -0.0635
        y: 0.149225
        z: 0.01905
      rotation: 
        x: 0.707106781185
        y: 7.3123012202e-14
        z: 0.707106781188
        w: -7.31230122016e-14
  - 
    header: 
      seq: 0
      stamp: 
        secs: 1407887665
        nsecs: 718666901
      frame_id: back_left_vertical_beam_link
    child_frame_id: left_laptop_support_beam_link
    transform: 
      translation: 
        x: -0.0762
        y: 0.0254
        z: 0.5969
      rotation: 
        x: 0.707106781185
        y: 7.3123012202e-14
        z: 0.707106781188
        w: -7.31230122016e-14
  - 
    header: 
      seq: 0
      stamp: 
        secs: 1407887665
        nsecs: 718666901
      frame_id: nav_hokuyo_plate_link
    child_frame_id: nav_hokuyo_link
    transform: 
      translation: 
        x: 0.0
        y: 0.0
        z: 0.003175
      rotation: 
        x: 0.0
        y: 0.0
        z: 0.0
        w: 1.0
  - 
    header: 
      seq: 0
      stamp: 
        secs: 1407887665
        nsecs: 718666901
      frame_id: nav_hokuyo_link
    child_frame_id: nav_hokuyo_laser_link
    transform: 
      translation: 
        x: 0.0
        y: 0.0
        z: 0.058
      rotation: 
        x: 0.0
        y: 0.0
        z: 0.0
        w: 1.0
  - 
    header: 
      seq: 0
      stamp: 
        secs: 1407887665
        nsecs: 718666901
      frame_id: nav_hokuyo_sensor_beam_link
    child_frame_id: nav_hokuyo_plate_link
    transform: 
      translation: 
        x: 0.0127
        y: 0.0
        z: 0.136525
      rotation: 
        x: 0.5
        y: 0.500000000003
        z: 0.5
        w: 0.499999999997
  - 
    header: 
      seq: 0
      stamp: 
        secs: 1407887665
        nsecs: 718666901
      frame_id: front_left_vertical_beam_link
    child_frame_id: nav_hokuyo_sensor_beam_link
    transform: 
      translation: 
        x: 0.0
        y: -0.0127
        z: 0.1778
      rotation: 
        x: -0.5
        y: -0.5
        z: 0.500000000003
        w: -0.499999999997
  - 
    header: 
      seq: 0
      stamp: 
        secs: 1407887665
        nsecs: 718666901
      frame_id: nav_kinect_sensor_beam_link
    child_frame_id: nav_kinect_base_plate_link
    transform: 
      translation: 
        x: 0.0127
        y: 0.0
        z: 0.136525
      rotation: 
        x: 0.5
        y: 0.500000000003
        z: 0.5
        w: 0.499999999997
  - 
    header: 
      seq: 0
      stamp: 
        secs: 1407887665
        nsecs: 718666901
      frame_id: nav_kinect_top_plate_link
    child_frame_id: nav_kinect_link
    transform: 
      translation: 
        x: 0.031242
        y: -0.013716
        z: 0.022352
      rotation: 
        x: 0.0
        y: 0.0
        z: 0.0
        w: 1.0
  - 
    header: 
      seq: 0
      stamp: 
        secs: 1407887665
        nsecs: 718666901
      frame_id: nav_kinect_link
    child_frame_id: nav_kinect_depth_frame
    transform: 
      translation: 
        x: 0.0
        y: -0.02
        z: 0.0
      rotation: 
        x: 0.0
        y: 0.0
        z: 0.0
        w: 1.0
  - 
    header: 
      seq: 0
      stamp: 
        secs: 1407887665
        nsecs: 718666901
      frame_id: nav_kinect_link
    child_frame_id: nav_kinect_rgb_frame
    transform: 
      translation: 
        x: 0.0
        y: -0.045
        z: 0.0
      rotation: 
        x: 0.0
        y: 0.0
        z: 0.0
        w: 1.0
  - 
    header: 
      seq: 0
      stamp: 
        secs: 1407887665
        nsecs: 718666901
      frame_id: nav_kinect_depth_frame
    child_frame_id: nav_kinect_depth_optical_frame
    transform: 
      translation: 
        x: 0.0
        y: 0.0
        z: 0.0
      rotation: 
        x: -0.5
        y: 0.500000000003
        z: -0.5
        w: 0.499999999997
  - 
    header: 
      seq: 0
      stamp: 
        secs: 1407887665
        nsecs: 718666901
      frame_id: nav_kinect_rgb_frame
    child_frame_id: nav_kinect_rgb_optical_frame
    transform: 
      translation: 
        x: 0.0
        y: 0.0
        z: 0.0
      rotation: 
        x: -0.5
        y: 0.500000000003
        z: -0.5
        w: 0.499999999997
  - 
    header: 
      seq: 0
      stamp: 
        secs: 1407887665
        nsecs: 718666901
      frame_id: back_right_vertical_beam_link
    child_frame_id: nav_kinect_sensor_beam_link
    transform: 
      translation: 
        x: 0.0
        y: 0.0127
        z: 0.2667
      rotation: 
        x: 0.5
        y: 0.5
        z: 0.500000000003
        w: -0.499999999997
  - 
    header: 
      seq: 0
      stamp: 
        secs: 1407887665
        nsecs: 718666901
      frame_id: nav_kinect_base_plate_link
    child_frame_id: nav_kinect_standoff_1_link
    transform: 
      translation: 
        x: 0.0381
        y: -0.1016
        z: 0.0015875
      rotation: 
        x: 0.0
        y: 0.0
        z: 0.0
        w: 1.0
  - 
    header: 
      seq: 0
      stamp: 
        secs: 1407887665
        nsecs: 718666901
      frame_id: nav_kinect_base_plate_link
    child_frame_id: nav_kinect_standoff_2_link
    transform: 
      translation: 
        x: 0.0381
        y: 0.1016
        z: 0.0015875
      rotation: 
        x: 0.0
        y: 0.0
        z: 0.0
        w: 1.0
  - 
    header: 
      seq: 0
      stamp: 
        secs: 1407887665
        nsecs: 718666901
      frame_id: nav_kinect_base_plate_link
    child_frame_id: nav_kinect_standoff_3_link
    transform: 
      translation: 
        x: -0.0381
        y: 0.1016
        z: 0.0015875
      rotation: 
        x: 0.0
        y: 0.0
        z: 0.0
        w: 1.0
  - 
    header: 
      seq: 0
      stamp: 
        secs: 1407887665
        nsecs: 718666901
      frame_id: nav_kinect_base_plate_link
    child_frame_id: nav_kinect_standoff_4_link
    transform: 
      translation: 
        x: -0.0381
        y: -0.1016
        z: 0.0015875
      rotation: 
        x: 0.0
        y: 0.0
        z: 0.0
        w: 1.0
  - 
    header: 
      seq: 0
      stamp: 
        secs: 1407887665
        nsecs: 718666901
      frame_id: nav_kinect_standoff_1_link
    child_frame_id: nav_kinect_top_plate_link
    transform: 
      translation: 
        x: -0.0381
        y: 0.1016
        z: 0.0508
      rotation: 
        x: 0.0
        y: 0.0
        z: 0.0
        w: 1.0
  - 
    header: 
      seq: 0
      stamp: 
        secs: 1407887665
        nsecs: 718666901
      frame_id: chassis_base_plate_link
    child_frame_id: right_base_beam_link
    transform: 
      translation: 
        x: -0.0635
        y: -0.149225
        z: 0.01905
      rotation: 
        x: 0.707106781185
        y: 7.3123012202e-14
        z: 0.707106781188
        w: -7.31230122016e-14
  - 
    header: 
      seq: 0
      stamp: 
        secs: 1407887665
        nsecs: 718666901
      frame_id: back_right_vertical_beam_link
    child_frame_id: right_laptop_support_beam_link
    transform: 
      translation: 
        x: -0.0762
        y: -0.0254
        z: 0.5969
      rotation: 
        x: 0.707106781185
        y: 7.3123012202e-14
        z: 0.707106781188
        w: -7.31230122016e-14
---
transforms: 
  - 
    header: 
      seq: 0
      stamp: 
        secs: 1407887665
        nsecs: 229332048
      frame_id: odom
    child_frame_id: base_footprint
    transform: 
      translation: 
        x: 0.00731677794829
        y: -3.70782363461e-05
        z: 0.0
      rotation: 
        x: 0.0
        y: 0.0
        z: -0.00343653628327
        w: 0.999994095092
---
transforms: 
  - 
    header: 
      seq: 0
      stamp: 
        secs: 1407887665
        nsecs: 243321013
      frame_id: odom
    child_frame_id: base_footprint
    transform: 
      translation: 
        x: 0.00731677794829
        y: -3.70782363461e-05
        z: 0.0
      rotation: 
        x: 0.0
        y: 0.0
        z: -0.00343653628327
        w: 0.999994095092
---
transforms: 
  - 
    header: 
      seq: 0
      stamp: 
        secs: 1407887665
        nsecs: 243360880
      frame_id: odom
    child_frame_id: base_footprint
    transform: 
      translation: 
        x: 0.00731677794829
        y: -3.70782363461e-05
        z: 0.0
      rotation: 
        x: 0.0
        y: 0.0
        z: -0.00343653628327
        w: 0.999994095092
---
transforms: 
  - 
    header: 
      seq: 0
      stamp: 
        secs: 1407887665
        nsecs: 255282152
      frame_id: odom
    child_frame_id: base_footprint
    transform: 
      translation: 
        x: 0.00731677794829
        y: -3.70782363461e-05
        z: 0.0
      rotation: 
        x: 0.0
        y: 0.0
        z: -0.00343653628327
        w: 0.999994095092
---
transforms: 
  - 
    header: 
      seq: 0
      stamp: 
        secs: 1407887666
        nsecs: 210246312
      frame_id: map
    child_frame_id: odom
    transform: 
      translation: 
        x: 22.7519025033
        y: 11.3824075232
        z: -0.0
      rotation: 
        x: 0.0
        y: 0.0
        z: 0.975439267843
        w: 0.22026855143
---
transforms: 
  - 
    header: 
      seq: 0
      stamp: 
        secs: 1407887665
        nsecs: 269164445
      frame_id: odom
    child_frame_id: base_footprint
    transform: 
      translation: 
        x: 0.00731677794829
        y: -3.70782363461e-05
        z: 0.0
      rotation: 
        x: 0.0
        y: 0.0
        z: -0.00343653628327
        w: 0.999994095092
---
transforms: 
  - 
    header: 
      seq: 0
      stamp: 
        secs: 1407887665
        nsecs: 283160145
      frame_id: odom
    child_frame_id: base_footprint
    transform: 
      translation: 
        x: 0.00731677794829
        y: -3.70782363461e-05
        z: 0.0
      rotation: 
        x: 0.0
        y: 0.0
        z: -0.00343653628327
        w: 0.999994095092
---
transforms: 
  - 
    header: 
      seq: 0
      stamp: 
        secs: 1407887665
        nsecs: 283213125
      frame_id: odom
    child_frame_id: base_footprint
    transform: 
      translation: 
        x: 0.00731677794829
        y: -3.70782363461e-05
        z: 0.0
      rotation: 
        x: 0.0
        y: 0.0
        z: -0.00343653628327
        w: 0.999994095092
---
transforms: 
  - 
    header: 
      seq: 0
      stamp: 
        secs: 1407887665
        nsecs: 295122643
      frame_id: odom
    child_frame_id: base_footprint
    transform: 
      translation: 
        x: 0.00731677794829
        y: -3.70782363461e-05
        z: 0.0
      rotation: 
        x: 0.0
        y: 0.0
        z: -0.00343653628327
        w: 0.999994095092
---
transforms: 
  - 
    header: 
      seq: 0
      stamp: 
        secs: 1407887665
        nsecs: 306103944
      frame_id: base_link
    child_frame_id: base_caster_support_link
    transform: 
      translation: 
        x: -0.3292
        y: 0.0
        z: -0.0485
      rotation: 
        x: 0.0
        y: 0.0
        z: 0.0
        w: 1.0
  - 
    header: 
      seq: 0
      stamp: 
        secs: 1407887665
        nsecs: 306103944
      frame_id: base_link
    child_frame_id: base_link_left_wheel_link
    transform: 
      translation: 
        x: 0.0
        y: 0.2689
        z: 0.0239
      rotation: 
        x: 0.0
        y: 0.0
        z: 0.0
        w: 1.0
  - 
    header: 
      seq: 0
      stamp: 
        secs: 1407887665
        nsecs: 306103944
      frame_id: base_link
    child_frame_id: base_link_right_wheel_link
    transform: 
      translation: 
        x: 0.0
        y: -0.2689
        z: 0.0239
      rotation: 
        x: 0.0
        y: 0.0
        z: 0.0
        w: 1.0
  - 
    header: 
      seq: 0
      stamp: 
        secs: 1407887665
        nsecs: 306103944
      frame_id: base_caster_support_link
    child_frame_id: caster_wheel_link
    transform: 
      translation: 
        x: -0.0397
        y: 0.0
        z: -0.0918
      rotation: 
        x: 0.0
        y: 0.0
        z: 0.0
        w: 1.0
---
transforms: 
  - 
    header: 
      seq: 0
      stamp: 
        secs: 1407887665
        nsecs: 309047887
      frame_id: odom
    child_frame_id: base_footprint
    transform: 
      translation: 
        x: 0.00731677794829
        y: -3.70782363461e-05
        z: 0.0
      rotation: 
        x: 0.0
        y: 0.0
        z: -0.00343653628327
        w: 0.999994095092
---
transforms: 
  - 
    header: 
      seq: 0
      stamp: 
        secs: 1407887665
        nsecs: 323007573
      frame_id: odom
    child_frame_id: base_footprint
    transform: 
      translation: 
        x: 0.00731677794829
        y: -3.70782363461e-05
        z: 0.0
      rotation: 
        x: 0.0
        y: 0.0
        z: -0.00343653628327
        w: 0.999994095092
---
transforms: 
  - 
    header: 
      seq: 0
      stamp: 
        secs: 1407887665
        nsecs: 323038091
      frame_id: odom
    child_frame_id: base_footprint
    transform: 
      translation: 
        x: 0.00731677794829
        y: -3.70782363461e-05
        z: 0.0
      rotation: 
        x: 0.0
        y: 0.0
        z: -0.00343653628327
        w: 0.999994095092
---
transforms: 
  - 
    header: 
      seq: 0
      stamp: 
        secs: 1407887665
        nsecs: 334997944
      frame_id: odom
    child_frame_id: base_footprint
    transform: 
      translation: 
        x: 0.00731677794829
        y: -3.70782363461e-05
        z: 0.0
      rotation: 
        x: 0.0
        y: 0.0
        z: -0.00343653628327
        w: 0.999994095092
---
transforms: 
  - 
    header: 
      seq: 0
      stamp: 
        secs: 1407887665
        nsecs: 348915192
      frame_id: odom
    child_frame_id: base_footprint
    transform: 
      translation: 
        x: 0.00731677794829
        y: -3.70782363461e-05
        z: 0.0
      rotation: 
        x: 0.0
        y: 0.0
        z: -0.00343653628327
        w: 0.999994095092
---
transforms: 
  - 
    header: 
      seq: 0
      stamp: 
        secs: 1407887665
        nsecs: 362881306
      frame_id: odom
    child_frame_id: base_footprint
    transform: 
      translation: 
        x: 0.00731677794829
        y: -3.70782363461e-05
        z: 0.0
      rotation: 
        x: 0.0
        y: 0.0
        z: -0.00343653628327
        w: 0.999994095092
---
transforms: 
  - 
    header: 
      seq: 0
      stamp: 
        secs: 1407887665
        nsecs: 362917215
      frame_id: odom
    child_frame_id: base_footprint
    transform: 
      translation: 
        x: 0.00731677794829
        y: -3.70782363461e-05
        z: 0.0
      rotation: 
        x: 0.0
        y: 0.0
        z: -0.00343653628327
        w: 0.999994095092
---
transforms: 
  - 
    header: 
      seq: 0
      stamp: 
        secs: 1407887666
        nsecs: 308999312
      frame_id: map
    child_frame_id: odom
    transform: 
      translation: 
        x: 22.7519025033
        y: 11.3824075232
        z: -0.0
      rotation: 
        x: 0.0
        y: 0.0
        z: 0.975439267843
        w: 0.22026855143
---
transforms: 
  - 
    header: 
      seq: 0
      stamp: 
        secs: 1407887665
        nsecs: 374846960
      frame_id: odom
    child_frame_id: base_footprint
    transform: 
      translation: 
        x: 0.00731677794829
        y: -3.70782363461e-05
        z: 0.0
      rotation: 
        x: 0.0
        y: 0.0
        z: -0.00343653628327
        w: 0.999994095092
---
transforms: 
  - 
    header: 
      seq: 0
      stamp: 
        secs: 1407887665
        nsecs: 388828360
      frame_id: odom
    child_frame_id: base_footprint
    transform: 
      translation: 
        x: 0.00731677794829
        y: -3.70782363461e-05
        z: 0.0
      rotation: 
        x: 0.0
        y: 0.0
        z: -0.00343653628327
        w: 0.999994095092
---
transforms: 
  - 
    header: 
      seq: 0
      stamp: 
        secs: 1407887665
        nsecs: 403602848
      frame_id: odom
    child_frame_id: base_footprint
    transform: 
      translation: 
        x: 0.00731677794829
        y: -3.70782363461e-05
        z: 0.0
      rotation: 
        x: 0.0
        y: 0.0
        z: -0.00343653628327
        w: 0.999994095092
---
transforms: 
  - 
    header: 
      seq: 0
      stamp: 
        secs: 1407887665
        nsecs: 403637497
      frame_id: odom
    child_frame_id: base_footprint
    transform: 
      translation: 
        x: 0.00731677794829
        y: -3.70782363461e-05
        z: 0.0
      rotation: 
        x: 0.0
        y: 0.0
        z: -0.00343653628327
        w: 0.999994095092
---
transforms: 
  - 
    header: 
      seq: 0
      stamp: 
        secs: 1407887665
        nsecs: 414741336
      frame_id: odom
    child_frame_id: base_footprint
    transform: 
      translation: 
        x: 0.00731677794829
        y: -3.70782363461e-05
        z: 0.0
      rotation: 
        x: 0.0
        y: 0.0
        z: -0.00343653628327
        w: 0.999994095092
---
transforms: 
  - 
    header: 
      seq: 0
      stamp: 
        secs: 1407887665
        nsecs: 918889396
      frame_id: left_base_beam_link
    child_frame_id: back_left_vertical_beam_link
    transform: 
      translation: 
        x: 0.0127
        y: 0.0
        z: 0.0762
      rotation: 
        x: 0.707106781185
        y: 7.3123012202e-14
        z: 0.707106781188
        w: -7.31230122016e-14
  - 
    header: 
      seq: 0
      stamp: 
        secs: 1407887665
        nsecs: 918889396
      frame_id: right_base_beam_link
    child_frame_id: back_right_vertical_beam_link
    transform: 
      translation: 
        x: 0.0127
        y: 0.0
        z: 0.0762
      rotation: 
        x: 0.707106781185
        y: 7.3123012202e-14
        z: 0.707106781188
        w: -7.31230122016e-14
  - 
    header: 
      seq: 0
      stamp: 
        secs: 1407887665
        nsecs: 918889396
      frame_id: base_footprint
    child_frame_id: base_link
    transform: 
      translation: 
        x: 0.0
        y: 0.0
        z: 0.2165
      rotation: 
        x: 0.0
        y: 0.0
        z: 0.0
        w: 1.0
  - 
    header: 
      seq: 0
      stamp: 
        secs: 1407887665
        nsecs: 918889396
      frame_id: chassis_base_plate_link
    child_frame_id: battery_box_link
    transform: 
      translation: 
        x: -0.1651
        y: 0.0
        z: 0.00635
      rotation: 
        x: 0.0
        y: 0.0
        z: 0.0
        w: 1.0
  - 
    header: 
      seq: 0
      stamp: 
        secs: 1407887665
        nsecs: 918889396
      frame_id: chassis_base_plate_link
    child_frame_id: chassis_back_left_standoff_link
    transform: 
      translation: 
        x: 0.15875
        y: 0.1143
        z: 0.003175
      rotation: 
        x: 0.0
        y: 0.0
        z: 0.0
        w: 1.0
  - 
    header: 
      seq: 0
      stamp: 
        secs: 1407887665
        nsecs: 918889396
      frame_id: chassis_base_plate_link
    child_frame_id: chassis_back_right_standoff_link
    transform: 
      translation: 
        x: 0.15875
        y: -0.1143
        z: 0.003175
      rotation: 
        x: 0.0
        y: 0.0
        z: 0.0
        w: 1.0
  - 
    header: 
      seq: 0
      stamp: 
        secs: 1407887665
        nsecs: 918889396
      frame_id: base_link
    child_frame_id: chassis_base_plate_link
    transform: 
      translation: 
        x: -0.0508
        y: 0.0
        z: 0.10795
      rotation: 
        x: 0.0
        y: 0.0
        z: 0.0
        w: 1.0
  - 
    header: 
      seq: 0
      stamp: 
        secs: 1407887665
        nsecs: 918889396
      frame_id: chassis_base_plate_link
    child_frame_id: chassis_front_left_standoff_link
    transform: 
      translation: 
        x: 0.20955
        y: 0.1143
        z: 0.003175
      rotation: 
        x: 0.0
        y: 0.0
        z: 0.0
        w: 1.0
  - 
    header: 
      seq: 0
      stamp: 
        secs: 1407887665
        nsecs: 918889396
      frame_id: chassis_base_plate_link
    child_frame_id: chassis_front_right_standoff_link
    transform: 
      translation: 
        x: 0.20955
        y: -0.1143
        z: 0.003175
      rotation: 
        x: 0.0
        y: 0.0
        z: 0.0
        w: 1.0
  - 
    header: 
      seq: 0
      stamp: 
        secs: 1407887665
        nsecs: 918889396
      frame_id: chassis_base_plate_link
    child_frame_id: chassis_left_plate_link
    transform: 
      translation: 
        x: 0.0
        y: 0.17145
        z: -0.0508
      rotation: 
        x: -0.707106781188
        y: 0.0
        z: 0.0
        w: 0.707106781185
  - 
    header: 
      seq: 0
      stamp: 
        secs: 1407887665
        nsecs: 918889396
      frame_id: chassis_front_left_standoff_link
    child_frame_id: chassis_mount_plate_link
    transform: 
      translation: 
        x: -0.09525
        y: -0.1143
        z: 0.01349375
      rotation: 
        x: 0.0
        y: 0.0
        z: 0.0
        w: 1.0
  - 
    header: 
      seq: 0
      stamp: 
        secs: 1407887665
        nsecs: 918889396
      frame_id: chassis_base_plate_link
    child_frame_id: chassis_right_plate_link
    transform: 
      translation: 
        x: 0.0
        y: -0.17145
        z: -0.0508
      rotation: 
        x: 0.707106781188
        y: 0.0
        z: 0.0
        w: 0.707106781185
  - 
    header: 
      seq: 0
      stamp: 
        secs: 1407887665
        nsecs: 918889396
      frame_id: left_base_beam_link
    child_frame_id: front_left_vertical_beam_link
    transform: 
      translation: 
        x: 0.0127
        y: 0.0
        z: 0.2286
      rotation: 
        x: 0.707106781185
        y: 7.3123012202e-14
        z: 0.707106781188
        w: -7.31230122016e-14
  - 
    header: 
      seq: 0
      stamp: 
        secs: 1407887665
        nsecs: 918889396
      frame_id: right_base_beam_link
    child_frame_id: front_right_vertical_beam_link
    transform: 
      translation: 
        x: 0.0127
        y: 0.0
        z: 0.2286
      rotation: 
        x: 0.707106781185
        y: 7.3123012202e-14
        z: 0.707106781188
        w: -7.31230122016e-14
  - 
    header: 
      seq: 0
      stamp: 
        secs: 1407887665
        nsecs: 918889396
      frame_id: left_laptop_support_beam_link
    child_frame_id: laptop_base_plate_link
    transform: 
      translation: 
        x: 0.0127
        y: 0.174625
        z: 0.1524
      rotation: 
        x: 0.707106781185
        y: 7.3123012202e-14
        z: 0.707106781188
        w: -7.31230122016e-14
  - 
    header: 
      seq: 0
      stamp: 
        secs: 1407887665
        nsecs: 918889396
      frame_id: laptop_base_plate_link
    child_frame_id: laptop_link
    transform: 
      translation: 
        x: 0.0
        y: 0.0
        z: 0.003175
      rotation: 
        x: 0.0
        y: 0.0
        z: 0.0
        w: 1.0
  - 
    header: 
      seq: 0
      stamp: 
        secs: 1407887665
        nsecs: 918889396
      frame_id: laptop_link
    child_frame_id: laptop_screen_link
    transform: 
      translation: 
        x: 0.1143
        y: 0.0
        z: 0.01905
      rotation: 
        x: 0.0
        y: -0.500000000001
        z: 0.0
        w: 0.866025403784
  - 
    header: 
      seq: 0
      stamp: 
        secs: 1407887665
        nsecs: 918889396
      frame_id: chassis_base_plate_link
    child_frame_id: left_base_beam_link
    transform: 
      translation: 
        x: -0.0635
        y: 0.149225
        z: 0.01905
      rotation: 
        x: 0.707106781185
        y: 7.3123012202e-14
        z: 0.707106781188
        w: -7.31230122016e-14
  - 
    header: 
      seq: 0
      stamp: 
        secs: 1407887665
        nsecs: 918889396
      frame_id: back_left_vertical_beam_link
    child_frame_id: left_laptop_support_beam_link
    transform: 
      translation: 
        x: -0.0762
        y: 0.0254
        z: 0.5969
      rotation: 
        x: 0.707106781185
        y: 7.3123012202e-14
        z: 0.707106781188
        w: -7.31230122016e-14
  - 
    header: 
      seq: 0
      stamp: 
        secs: 1407887665
        nsecs: 918889396
      frame_id: nav_hokuyo_plate_link
    child_frame_id: nav_hokuyo_link
    transform: 
      translation: 
        x: 0.0
        y: 0.0
        z: 0.003175
      rotation: 
        x: 0.0
        y: 0.0
        z: 0.0
        w: 1.0
  - 
    header: 
      seq: 0
      stamp: 
        secs: 1407887665
        nsecs: 918889396
      frame_id: nav_hokuyo_link
    child_frame_id: nav_hokuyo_laser_link
    transform: 
      translation: 
        x: 0.0
        y: 0.0
        z: 0.058
      rotation: 
        x: 0.0
        y: 0.0
        z: 0.0
        w: 1.0
  - 
    header: 
      seq: 0
      stamp: 
        secs: 1407887665
        nsecs: 918889396
      frame_id: nav_hokuyo_sensor_beam_link
    child_frame_id: nav_hokuyo_plate_link
    transform: 
      translation: 
        x: 0.0127
        y: 0.0
        z: 0.136525
      rotation: 
        x: 0.5
        y: 0.500000000003
        z: 0.5
        w: 0.499999999997
  - 
    header: 
      seq: 0
      stamp: 
        secs: 1407887665
        nsecs: 918889396
      frame_id: front_left_vertical_beam_link
    child_frame_id: nav_hokuyo_sensor_beam_link
    transform: 
      translation: 
        x: 0.0
        y: -0.0127
        z: 0.1778
      rotation: 
        x: -0.5
        y: -0.5
        z: 0.500000000003
        w: -0.499999999997
  - 
    header: 
      seq: 0
      stamp: 
        secs: 1407887665
        nsecs: 918889396
      frame_id: nav_kinect_sensor_beam_link
    child_frame_id: nav_kinect_base_plate_link
    transform: 
      translation: 
        x: 0.0127
        y: 0.0
        z: 0.136525
      rotation: 
        x: 0.5
        y: 0.500000000003
        z: 0.5
        w: 0.499999999997
  - 
    header: 
      seq: 0
      stamp: 
        secs: 1407887665
        nsecs: 918889396
      frame_id: nav_kinect_top_plate_link
    child_frame_id: nav_kinect_link
    transform: 
      translation: 
        x: 0.031242
        y: -0.013716
        z: 0.022352
      rotation: 
        x: 0.0
        y: 0.0
        z: 0.0
        w: 1.0
  - 
    header: 
      seq: 0
      stamp: 
        secs: 1407887665
        nsecs: 918889396
      frame_id: nav_kinect_link
    child_frame_id: nav_kinect_depth_frame
    transform: 
      translation: 
        x: 0.0
        y: -0.02
        z: 0.0
      rotation: 
        x: 0.0
        y: 0.0
        z: 0.0
        w: 1.0
  - 
    header: 
      seq: 0
      stamp: 
        secs: 1407887665
        nsecs: 918889396
      frame_id: nav_kinect_link
    child_frame_id: nav_kinect_rgb_frame
    transform: 
      translation: 
        x: 0.0
        y: -0.045
        z: 0.0
      rotation: 
        x: 0.0
        y: 0.0
        z: 0.0
        w: 1.0
  - 
    header: 
      seq: 0
      stamp: 
        secs: 1407887665
        nsecs: 918889396
      frame_id: nav_kinect_depth_frame
    child_frame_id: nav_kinect_depth_optical_frame
    transform: 
      translation: 
        x: 0.0
        y: 0.0
        z: 0.0
      rotation: 
        x: -0.5
        y: 0.500000000003
        z: -0.5
        w: 0.499999999997
  - 
    header: 
      seq: 0
      stamp: 
        secs: 1407887665
        nsecs: 918889396
      frame_id: nav_kinect_rgb_frame
    child_frame_id: nav_kinect_rgb_optical_frame
    transform: 
      translation: 
        x: 0.0
        y: 0.0
        z: 0.0
      rotation: 
        x: -0.5
        y: 0.500000000003
        z: -0.5
        w: 0.499999999997
  - 
    header: 
      seq: 0
      stamp: 
        secs: 1407887665
        nsecs: 918889396
      frame_id: back_right_vertical_beam_link
    child_frame_id: nav_kinect_sensor_beam_link
    transform: 
      translation: 
        x: 0.0
        y: 0.0127
        z: 0.2667
      rotation: 
        x: 0.5
        y: 0.5
        z: 0.500000000003
        w: -0.499999999997
  - 
    header: 
      seq: 0
      stamp: 
        secs: 1407887665
        nsecs: 918889396
      frame_id: nav_kinect_base_plate_link
    child_frame_id: nav_kinect_standoff_1_link
    transform: 
      translation: 
        x: 0.0381
        y: -0.1016
        z: 0.0015875
      rotation: 
        x: 0.0
        y: 0.0
        z: 0.0
        w: 1.0
  - 
    header: 
      seq: 0
      stamp: 
        secs: 1407887665
        nsecs: 918889396
      frame_id: nav_kinect_base_plate_link
    child_frame_id: nav_kinect_standoff_2_link
    transform: 
      translation: 
        x: 0.0381
        y: 0.1016
        z: 0.0015875
      rotation: 
        x: 0.0
        y: 0.0
        z: 0.0
        w: 1.0
  - 
    header: 
      seq: 0
      stamp: 
        secs: 1407887665
        nsecs: 918889396
      frame_id: nav_kinect_base_plate_link
    child_frame_id: nav_kinect_standoff_3_link
    transform: 
      translation: 
        x: -0.0381
        y: 0.1016
        z: 0.0015875
      rotation: 
        x: 0.0
        y: 0.0
        z: 0.0
        w: 1.0
  - 
    header: 
      seq: 0
      stamp: 
        secs: 1407887665
        nsecs: 918889396
      frame_id: nav_kinect_base_plate_link
    child_frame_id: nav_kinect_standoff_4_link
    transform: 
      translation: 
        x: -0.0381
        y: -0.1016
        z: 0.0015875
      rotation: 
        x: 0.0
        y: 0.0
        z: 0.0
        w: 1.0
  - 
    header: 
      seq: 0
      stamp: 
        secs: 1407887665
        nsecs: 918889396
      frame_id: nav_kinect_standoff_1_link
    child_frame_id: nav_kinect_top_plate_link
    transform: 
      translation: 
        x: -0.0381
        y: 0.1016
        z: 0.0508
      rotation: 
        x: 0.0
        y: 0.0
        z: 0.0
        w: 1.0
  - 
    header: 
      seq: 0
      stamp: 
        secs: 1407887665
        nsecs: 918889396
      frame_id: chassis_base_plate_link
    child_frame_id: right_base_beam_link
    transform: 
      translation: 
        x: -0.0635
        y: -0.149225
        z: 0.01905
      rotation: 
        x: 0.707106781185
        y: 7.3123012202e-14
        z: 0.707106781188
        w: -7.31230122016e-14
  - 
    header: 
      seq: 0
      stamp: 
        secs: 1407887665
        nsecs: 918889396
      frame_id: back_right_vertical_beam_link
    child_frame_id: right_laptop_support_beam_link
    transform: 
      translation: 
        x: -0.0762
        y: -0.0254
        z: 0.5969
      rotation: 
        x: 0.707106781185
        y: 7.3123012202e-14
        z: 0.707106781188
        w: -7.31230122016e-14
---
transforms: 
  - 
    header: 
      seq: 0
      stamp: 
        secs: 1407887665
        nsecs: 428641823
      frame_id: odom
    child_frame_id: base_footprint
    transform: 
      translation: 
        x: 0.00731677794829
        y: -3.70782363461e-05
        z: 0.0
      rotation: 
        x: 0.0
        y: 0.0
        z: -0.00343653628327
        w: 0.999994095092
---
transforms: 
  - 
    header: 
      seq: 0
      stamp: 
        secs: 1407887665
        nsecs: 442562282
      frame_id: odom
    child_frame_id: base_footprint
    transform: 
      translation: 
        x: 0.00731677794829
        y: -3.70782363461e-05
        z: 0.0
      rotation: 
        x: 0.0
        y: 0.0
        z: -0.00343653628327
        w: 0.999994095092
---
transforms: 
  - 
    header: 
      seq: 0
      stamp: 
        secs: 1407887665
        nsecs: 442598121
      frame_id: odom
    child_frame_id: base_footprint
    transform: 
      translation: 
        x: 0.00731677794829
        y: -3.70782363461e-05
        z: 0.0
      rotation: 
        x: 0.0
        y: 0.0
        z: -0.00343653628327
        w: 0.999994095092
---
transforms: 
  - 
    header: 
      seq: 0
      stamp: 
        secs: 1407887665
        nsecs: 454528575
      frame_id: odom
    child_frame_id: base_footprint
    transform: 
      translation: 
        x: 0.00731677794829
        y: -3.70782363461e-05
        z: 0.0
      rotation: 
        x: 0.0
        y: 0.0
        z: -0.00343653628327
        w: 0.999994095092
---
transforms: 
  - 
    header: 
      seq: 0
      stamp: 
        secs: 1407887665
        nsecs: 469278562
      frame_id: odom
    child_frame_id: base_footprint
    transform: 
      translation: 
        x: 0.00731677794829
        y: -3.70782363461e-05
        z: 0.0
      rotation: 
        x: 0.0
        y: 0.0
        z: -0.00343653628327
        w: 0.999994095092
---
transforms: 
  - 
    header: 
      seq: 0
      stamp: 
        secs: 1407887666
        nsecs: 412313312
      frame_id: map
    child_frame_id: odom
    transform: 
      translation: 
        x: 22.7519025033
        y: 11.3824075232
        z: -0.0
      rotation: 
        x: 0.0
        y: 0.0
        z: 0.975439267843
        w: 0.22026855143
---
transforms: 
  - 
    header: 
      seq: 0
      stamp: 
        secs: 1407887665
        nsecs: 483408549
      frame_id: odom
    child_frame_id: base_footprint
    transform: 
      translation: 
        x: 0.00731677794829
        y: -3.70782363461e-05
        z: 0.0
      rotation: 
        x: 0.0
        y: 0.0
        z: -0.00343653628327
        w: 0.999994095092
---
transforms: 
  - 
    header: 
      seq: 0
      stamp: 
        secs: 1407887665
        nsecs: 483442959
      frame_id: odom
    child_frame_id: base_footprint
    transform: 
      translation: 
        x: 0.00731677794829
        y: -3.70782363461e-05
        z: 0.0
      rotation: 
        x: 0.0
        y: 0.0
        z: -0.00343653628327
        w: 0.999994095092
---
transforms: 
  - 
    header: 
      seq: 0
      stamp: 
        secs: 1407887665
        nsecs: 495414922
      frame_id: odom
    child_frame_id: base_footprint
    transform: 
      translation: 
        x: 0.00731677794829
        y: -3.70782363461e-05
        z: 0.0
      rotation: 
        x: 0.0
        y: 0.0
        z: -0.00343653628327
        w: 0.999994095092
---
transforms: 
  - 
    header: 
      seq: 0
      stamp: 
        secs: 1407887665
        nsecs: 509325584
      frame_id: odom
    child_frame_id: base_footprint
    transform: 
      translation: 
        x: 0.00731677794829
        y: -3.70782363461e-05
        z: 0.0
      rotation: 
        x: 0.0
        y: 0.0
        z: -0.00343653628327
        w: 0.999994095092
---
transforms: 
  - 
    header: 
      seq: 0
      stamp: 
        secs: 1407887665
        nsecs: 523299548
      frame_id: odom
    child_frame_id: base_footprint
    transform: 
      translation: 
        x: 0.00731677794829
        y: -3.70782363461e-05
        z: 0.0
      rotation: 
        x: 0.0
        y: 0.0
        z: -0.00343653628327
        w: 0.999994095092
---
transforms: 
  - 
    header: 
      seq: 0
      stamp: 
        secs: 1407887665
        nsecs: 523339588
      frame_id: odom
    child_frame_id: base_footprint
    transform: 
      translation: 
        x: 0.00731677794829
        y: -3.70782363461e-05
        z: 0.0
      rotation: 
        x: 0.0
        y: 0.0
        z: -0.00343653628327
        w: 0.999994095092
---
transforms: 
  - 
    header: 
      seq: 0
      stamp: 
        secs: 1407887665
        nsecs: 535274802
      frame_id: odom
    child_frame_id: base_footprint
    transform: 
      translation: 
        x: 0.00731677794829
        y: -3.70782363461e-05
        z: 0.0
      rotation: 
        x: 0.0
        y: 0.0
        z: -0.00343653628327
        w: 0.999994095092
---
transforms: 
  - 
    header: 
      seq: 0
      stamp: 
        secs: 1407887665
        nsecs: 549171850
      frame_id: odom
    child_frame_id: base_footprint
    transform: 
      translation: 
        x: 0.00731677794829
        y: -3.70782363461e-05
        z: 0.0
      rotation: 
        x: 0.0
        y: 0.0
        z: -0.00343653628327
        w: 0.999994095092
---
transforms: 
  - 
    header: 
      seq: 0
      stamp: 
        secs: 1407887665
        nsecs: 563154436
      frame_id: odom
    child_frame_id: base_footprint
    transform: 
      translation: 
        x: 0.00731677794829
        y: -3.70782363461e-05
        z: 0.0
      rotation: 
        x: 0.0
        y: 0.0
        z: -0.00343653628327
        w: 0.999994095092
---
transforms: 
  - 
    header: 
      seq: 0
      stamp: 
        secs: 1407887665
        nsecs: 563204065
      frame_id: odom
    child_frame_id: base_footprint
    transform: 
      translation: 
        x: 0.00731677794829
        y: -3.70782363461e-05
        z: 0.0
      rotation: 
        x: 0.0
        y: 0.0
        z: -0.00343653628327
        w: 0.999994095092
---
transforms: 
  - 
    header: 
      seq: 0
      stamp: 
        secs: 1407887666
        nsecs: 509968312
      frame_id: map
    child_frame_id: odom
    transform: 
      translation: 
        x: 22.7519025033
        y: 11.3824075232
        z: -0.0
      rotation: 
        x: 0.0
        y: 0.0
        z: 0.975439267843
        w: 0.22026855143
---
transforms: 
  - 
    header: 
      seq: 0
      stamp: 
        secs: 1407887665
        nsecs: 575110620
      frame_id: odom
    child_frame_id: base_footprint
    transform: 
      translation: 
        x: 0.00731677794829
        y: -3.70782363461e-05
        z: 0.0
      rotation: 
        x: 0.0
        y: 0.0
        z: -0.00343653628327
        w: 0.999994095092
---
transforms: 
  - 
    header: 
      seq: 0
      stamp: 
        secs: 1407887665
        nsecs: 589081042
      frame_id: odom
    child_frame_id: base_footprint
    transform: 
      translation: 
        x: 0.00731677794829
        y: -3.70782363461e-05
        z: 0.0
      rotation: 
        x: 0.0
        y: 0.0
        z: -0.00343653628327
        w: 0.999994095092
---
transforms: 
  - 
    header: 
      seq: 0
      stamp: 
        secs: 1407887665
        nsecs: 603054906
      frame_id: odom
    child_frame_id: base_footprint
    transform: 
      translation: 
        x: 0.00731677794829
        y: -3.70782363461e-05
        z: 0.0
      rotation: 
        x: 0.0
        y: 0.0
        z: -0.00343653628327
        w: 0.999994095092
---
transforms: 
  - 
    header: 
      seq: 0
      stamp: 
        secs: 1407887665
        nsecs: 603092445
      frame_id: odom
    child_frame_id: base_footprint
    transform: 
      translation: 
        x: 0.00731677794829
        y: -3.70782363461e-05
        z: 0.0
      rotation: 
        x: 0.0
        y: 0.0
        z: -0.00343653628327
        w: 0.999994095092
---
transforms: 
  - 
    header: 
      seq: 0
      stamp: 
        secs: 1407887665
        nsecs: 606090068
      frame_id: base_link
    child_frame_id: base_caster_support_link
    transform: 
      translation: 
        x: -0.3292
        y: 0.0
        z: -0.0485
      rotation: 
        x: 0.0
        y: 0.0
        z: 0.0
        w: 1.0
  - 
    header: 
      seq: 0
      stamp: 
        secs: 1407887665
        nsecs: 606090068
      frame_id: base_link
    child_frame_id: base_link_left_wheel_link
    transform: 
      translation: 
        x: 0.0
        y: 0.2689
        z: 0.0239
      rotation: 
        x: 0.0
        y: 0.0
        z: 0.0
        w: 1.0
  - 
    header: 
      seq: 0
      stamp: 
        secs: 1407887665
        nsecs: 606090068
      frame_id: base_link
    child_frame_id: base_link_right_wheel_link
    transform: 
      translation: 
        x: 0.0
        y: -0.2689
        z: 0.0239
      rotation: 
        x: 0.0
        y: 0.0
        z: 0.0
        w: 1.0
  - 
    header: 
      seq: 0
      stamp: 
        secs: 1407887665
        nsecs: 606090068
      frame_id: base_caster_support_link
    child_frame_id: caster_wheel_link
    transform: 
      translation: 
        x: -0.0397
        y: 0.0
        z: -0.0918
      rotation: 
        x: 0.0
        y: 0.0
        z: 0.0
        w: 1.0
---
transforms: 
  - 
    header: 
      seq: 0
      stamp: 
        secs: 1407887665
        nsecs: 614995551
      frame_id: odom
    child_frame_id: base_footprint
    transform: 
      translation: 
        x: 0.00731677794829
        y: -3.70782363461e-05
        z: 0.0
      rotation: 
        x: 0.0
        y: 0.0
        z: -0.00343653628327
        w: 0.999994095092
---
transforms: 
  - 
    header: 
      seq: 0
      stamp: 
        secs: 1407887666
        nsecs: 118145712
      frame_id: left_base_beam_link
    child_frame_id: back_left_vertical_beam_link
    transform: 
      translation: 
        x: 0.0127
        y: 0.0
        z: 0.0762
      rotation: 
        x: 0.707106781185
        y: 7.3123012202e-14
        z: 0.707106781188
        w: -7.31230122016e-14
  - 
    header: 
      seq: 0
      stamp: 
        secs: 1407887666
        nsecs: 118145712
      frame_id: right_base_beam_link
    child_frame_id: back_right_vertical_beam_link
    transform: 
      translation: 
        x: 0.0127
        y: 0.0
        z: 0.0762
      rotation: 
        x: 0.707106781185
        y: 7.3123012202e-14
        z: 0.707106781188
        w: -7.31230122016e-14
  - 
    header: 
      seq: 0
      stamp: 
        secs: 1407887666
        nsecs: 118145712
      frame_id: base_footprint
    child_frame_id: base_link
    transform: 
      translation: 
        x: 0.0
        y: 0.0
        z: 0.2165
      rotation: 
        x: 0.0
        y: 0.0
        z: 0.0
        w: 1.0
  - 
    header: 
      seq: 0
      stamp: 
        secs: 1407887666
        nsecs: 118145712
      frame_id: chassis_base_plate_link
    child_frame_id: battery_box_link
    transform: 
      translation: 
        x: -0.1651
        y: 0.0
        z: 0.00635
      rotation: 
        x: 0.0
        y: 0.0
        z: 0.0
        w: 1.0
  - 
    header: 
      seq: 0
      stamp: 
        secs: 1407887666
        nsecs: 118145712
      frame_id: chassis_base_plate_link
    child_frame_id: chassis_back_left_standoff_link
    transform: 
      translation: 
        x: 0.15875
        y: 0.1143
        z: 0.003175
      rotation: 
        x: 0.0
        y: 0.0
        z: 0.0
        w: 1.0
  - 
    header: 
      seq: 0
      stamp: 
        secs: 1407887666
        nsecs: 118145712
      frame_id: chassis_base_plate_link
    child_frame_id: chassis_back_right_standoff_link
    transform: 
      translation: 
        x: 0.15875
        y: -0.1143
        z: 0.003175
      rotation: 
        x: 0.0
        y: 0.0
        z: 0.0
        w: 1.0
  - 
    header: 
      seq: 0
      stamp: 
        secs: 1407887666
        nsecs: 118145712
      frame_id: base_link
    child_frame_id: chassis_base_plate_link
    transform: 
      translation: 
        x: -0.0508
        y: 0.0
        z: 0.10795
      rotation: 
        x: 0.0
        y: 0.0
        z: 0.0
        w: 1.0
  - 
    header: 
      seq: 0
      stamp: 
        secs: 1407887666
        nsecs: 118145712
      frame_id: chassis_base_plate_link
    child_frame_id: chassis_front_left_standoff_link
    transform: 
      translation: 
        x: 0.20955
        y: 0.1143
        z: 0.003175
      rotation: 
        x: 0.0
        y: 0.0
        z: 0.0
        w: 1.0
  - 
    header: 
      seq: 0
      stamp: 
        secs: 1407887666
        nsecs: 118145712
      frame_id: chassis_base_plate_link
    child_frame_id: chassis_front_right_standoff_link
    transform: 
      translation: 
        x: 0.20955
        y: -0.1143
        z: 0.003175
      rotation: 
        x: 0.0
        y: 0.0
        z: 0.0
        w: 1.0
  - 
    header: 
      seq: 0
      stamp: 
        secs: 1407887666
        nsecs: 118145712
      frame_id: chassis_base_plate_link
    child_frame_id: chassis_left_plate_link
    transform: 
      translation: 
        x: 0.0
        y: 0.17145
        z: -0.0508
      rotation: 
        x: -0.707106781188
        y: 0.0
        z: 0.0
        w: 0.707106781185
  - 
    header: 
      seq: 0
      stamp: 
        secs: 1407887666
        nsecs: 118145712
      frame_id: chassis_front_left_standoff_link
    child_frame_id: chassis_mount_plate_link
    transform: 
      translation: 
        x: -0.09525
        y: -0.1143
        z: 0.01349375
      rotation: 
        x: 0.0
        y: 0.0
        z: 0.0
        w: 1.0
  - 
    header: 
      seq: 0
      stamp: 
        secs: 1407887666
        nsecs: 118145712
      frame_id: chassis_base_plate_link
    child_frame_id: chassis_right_plate_link
    transform: 
      translation: 
        x: 0.0
        y: -0.17145
        z: -0.0508
      rotation: 
        x: 0.707106781188
        y: 0.0
        z: 0.0
        w: 0.707106781185
  - 
    header: 
      seq: 0
      stamp: 
        secs: 1407887666
        nsecs: 118145712
      frame_id: left_base_beam_link
    child_frame_id: front_left_vertical_beam_link
    transform: 
      translation: 
        x: 0.0127
        y: 0.0
        z: 0.2286
      rotation: 
        x: 0.707106781185
        y: 7.3123012202e-14
        z: 0.707106781188
        w: -7.31230122016e-14
  - 
    header: 
      seq: 0
      stamp: 
        secs: 1407887666
        nsecs: 118145712
      frame_id: right_base_beam_link
    child_frame_id: front_right_vertical_beam_link
    transform: 
      translation: 
        x: 0.0127
        y: 0.0
        z: 0.2286
      rotation: 
        x: 0.707106781185
        y: 7.3123012202e-14
        z: 0.707106781188
        w: -7.31230122016e-14
  - 
    header: 
      seq: 0
      stamp: 
        secs: 1407887666
        nsecs: 118145712
      frame_id: left_laptop_support_beam_link
    child_frame_id: laptop_base_plate_link
    transform: 
      translation: 
        x: 0.0127
        y: 0.174625
        z: 0.1524
      rotation: 
        x: 0.707106781185
        y: 7.3123012202e-14
        z: 0.707106781188
        w: -7.31230122016e-14
  - 
    header: 
      seq: 0
      stamp: 
        secs: 1407887666
        nsecs: 118145712
      frame_id: laptop_base_plate_link
    child_frame_id: laptop_link
    transform: 
      translation: 
        x: 0.0
        y: 0.0
        z: 0.003175
      rotation: 
        x: 0.0
        y: 0.0
        z: 0.0
        w: 1.0
  - 
    header: 
      seq: 0
      stamp: 
        secs: 1407887666
        nsecs: 118145712
      frame_id: laptop_link
    child_frame_id: laptop_screen_link
    transform: 
      translation: 
        x: 0.1143
        y: 0.0
        z: 0.01905
      rotation: 
        x: 0.0
        y: -0.500000000001
        z: 0.0
        w: 0.866025403784
  - 
    header: 
      seq: 0
      stamp: 
        secs: 1407887666
        nsecs: 118145712
      frame_id: chassis_base_plate_link
    child_frame_id: left_base_beam_link
    transform: 
      translation: 
        x: -0.0635
        y: 0.149225
        z: 0.01905
      rotation: 
        x: 0.707106781185
        y: 7.3123012202e-14
        z: 0.707106781188
        w: -7.31230122016e-14
  - 
    header: 
      seq: 0
      stamp: 
        secs: 1407887666
        nsecs: 118145712
      frame_id: back_left_vertical_beam_link
    child_frame_id: left_laptop_support_beam_link
    transform: 
      translation: 
        x: -0.0762
        y: 0.0254
        z: 0.5969
      rotation: 
        x: 0.707106781185
        y: 7.3123012202e-14
        z: 0.707106781188
        w: -7.31230122016e-14
  - 
    header: 
      seq: 0
      stamp: 
        secs: 1407887666
        nsecs: 118145712
      frame_id: nav_hokuyo_plate_link
    child_frame_id: nav_hokuyo_link
    transform: 
      translation: 
        x: 0.0
        y: 0.0
        z: 0.003175
      rotation: 
        x: 0.0
        y: 0.0
        z: 0.0
        w: 1.0
  - 
    header: 
      seq: 0
      stamp: 
        secs: 1407887666
        nsecs: 118145712
      frame_id: nav_hokuyo_link
    child_frame_id: nav_hokuyo_laser_link
    transform: 
      translation: 
        x: 0.0
        y: 0.0
        z: 0.058
      rotation: 
        x: 0.0
        y: 0.0
        z: 0.0
        w: 1.0
  - 
    header: 
      seq: 0
      stamp: 
        secs: 1407887666
        nsecs: 118145712
      frame_id: nav_hokuyo_sensor_beam_link
    child_frame_id: nav_hokuyo_plate_link
    transform: 
      translation: 
        x: 0.0127
        y: 0.0
        z: 0.136525
      rotation: 
        x: 0.5
        y: 0.500000000003
        z: 0.5
        w: 0.499999999997
  - 
    header: 
      seq: 0
      stamp: 
        secs: 1407887666
        nsecs: 118145712
      frame_id: front_left_vertical_beam_link
    child_frame_id: nav_hokuyo_sensor_beam_link
    transform: 
      translation: 
        x: 0.0
        y: -0.0127
        z: 0.1778
      rotation: 
        x: -0.5
        y: -0.5
        z: 0.500000000003
        w: -0.499999999997
  - 
    header: 
      seq: 0
